{
"type": "FeatureCollection",
"name": "safehouse",
"crs": { "type": "name", "properties": { "name": "urn:ogc:def:crs:OGC:1.3:CRS84" } },
"features": [
{ "type": "Feature", "properties": { "fid": 2908, "ctprvn_cd": 41, "objt_id": 253252, "fclty_cd": 504040, "rn_adres": null, "fclty_nm": "교하 산뜨락곤드레", "sgg_cd": null, "fclty_ty": "아동안전지킴이집", "adres": "경기도 파주시 동패동,1096-5", "telno": "031-947-5225", "x": 14104597.265559999, "data_yr": null, "y": 4538439.0289799999, "emd_cd": 41480113 }, "geometry": { "type": "Point", "coordinates": [ 126.70375300002955, 37.70928843996623 ] } },
{ "type": "Feature", "properties": { "fid": 9176, "ctprvn_cd": 41, "objt_id": 259520, "fclty_cd": 504040, "rn_adres": null, "fclty_nm": "코사마트(13단지)", "sgg_cd": null, "fclty_ty": "아동안전지킴이집", "adres": "경기도 파주시 책향기로 210-0", "telno": "031-957-6767", "x": 14106150.77358, "data_yr": null, "y": 4540267.1717299996, "emd_cd": 41480113 }, "geometry": { "type": "Point", "coordinates": [ 126.717708400013251, 37.722279529984334 ] } },
{ "type": "Feature", "properties": { "fid": 9204, "ctprvn_cd": 41, "objt_id": 259548, "fclty_cd": 504040, "rn_adres": null, "fclty_nm": "탄현 영아트 문구점", "sgg_cd": null, "fclty_ty": "아동안전지킴이집", "adres": "경기도 파주시 하늘소로 106-0,1723-2", "telno": "031-946-9945", "x": 14104364.44084, "data_yr": null, "y": 4547613.8376799999, "emd_cd": 41480320 }, "geometry": { "type": "Point", "coordinates": [ 126.70166149998461, 37.774463199996795 ] } },
{ "type": "Feature", "properties": { "fid": 5431, "ctprvn_cd": 41, "objt_id": 255775, "fclty_cd": 504040, "rn_adres": null, "fclty_nm": "삼성스토어 운정", "sgg_cd": null, "fclty_ty": "아동안전지킴이집", "adres": "경기도 파주시 미래로 304-0,미래로 304", "telno": "031-8071-6262", "x": 14109345.74315, "data_yr": null, "y": 4537814.7265400002, "emd_cd": 41480113 }, "geometry": { "type": "Point", "coordinates": [ 126.746409299983512, 37.70485152002157 ] } },
{ "type": "Feature", "properties": { "fid": 2874, "ctprvn_cd": 41, "objt_id": 253218, "fclty_cd": 504040, "rn_adres": null, "fclty_nm": "파주 이노아울렛", "sgg_cd": null, "fclty_ty": "아동안전지킴이집", "adres": "경기도 파주시 대원로 332-7", "telno": "031-907-7951", "x": 14114919.443259999, "data_yr": null, "y": 4543149.3743700003, "emd_cd": 41480262 }, "geometry": { "type": "Point", "coordinates": [ 126.79647869996262, 37.74275632000699 ] } },
{ "type": "Feature", "properties": { "fid": 2909, "ctprvn_cd": 41, "objt_id": 253253, "fclty_cd": 504040, "rn_adres": null, "fclty_nm": "교하 코사마트", "sgg_cd": null, "fclty_ty": "아동안전지킴이집", "adres": "경기도 파주시 교하로 1389-0", "telno": "031-945-5589", "x": 14109260.47242, "data_yr": null, "y": 4544662.2452600002, "emd_cd": 41480107 }, "geometry": { "type": "Point", "coordinates": [ 126.745643299983044, 37.753502340008886 ] } },
{ "type": "Feature", "properties": { "fid": 4494, "ctprvn_cd": 41, "objt_id": 254838, "fclty_cd": 504040, "rn_adres": null, "fclty_nm": "모범약국", "sgg_cd": null, "fclty_ty": "아동안전지킴이집", "adres": "경기도 파주시 금촌동,791-11", "telno": "031-944-7582", "x": 14113001.31938, "data_yr": null, "y": 4544950.3359500002, "emd_cd": 41480101 }, "geometry": { "type": "Point", "coordinates": [ 126.779247899980263, 37.755548489985792 ] } },
{ "type": "Feature", "properties": { "fid": 1001, "ctprvn_cd": 41, "objt_id": 251345, "fclty_cd": 504040, "rn_adres": null, "fclty_nm": "CU(금촌동문점)", "sgg_cd": null, "fclty_ty": "아동안전지킴이집", "adres": "경기도 파주시 정담길 61-0", "telno": "031-957-7045", "x": 14112655.928400001, "data_yr": null, "y": 4547064.96686, "emd_cd": 41480102 }, "geometry": { "type": "Point", "coordinates": [ 126.776145200016941, 37.77056581998847 ] } },
{ "type": "Feature", "properties": { "fid": 2991, "ctprvn_cd": 41, "objt_id": 253335, "fclty_cd": 504040, "rn_adres": null, "fclty_nm": "광탄 대일할인마트", "sgg_cd": null, "fclty_ty": "아동안전지킴이집", "adres": "경기도 파주시 큰여울길 27-0", "telno": "031-947-2281", "x": 14120703.770989999, "data_yr": null, "y": 4548321.3885399997, "emd_cd": 41480350 }, "geometry": { "type": "Point", "coordinates": [ 126.848440200044791, 37.779487020002179 ] } },
{ "type": "Feature", "properties": { "fid": 2990, "ctprvn_cd": 41, "objt_id": 253334, "fclty_cd": 504040, "rn_adres": null, "fclty_nm": "광탄 굿모닝25시", "sgg_cd": null, "fclty_ty": "아동안전지킴이집", "adres": "경기도 파주시 동거리길 28-0", "telno": "031-947-0901", "x": 14120767.22309, "data_yr": null, "y": 4548538.2004199997, "emd_cd": 41480350 }, "geometry": { "type": "Point", "coordinates": [ 126.849010199957206, 37.781026380025828 ] } },
{ "type": "Feature", "properties": { "fid": 4977, "ctprvn_cd": 41, "objt_id": 255321, "fclty_cd": 504040, "rn_adres": null, "fclty_nm": "법원 코사마트", "sgg_cd": null, "fclty_ty": "아동안전지킴이집", "adres": "경기도 파주시 사임당로 847-0,사임당로 847", "telno": "031-958-1191", "x": 14123662.81003, "data_yr": null, "y": 4558139.3201900003, "emd_cd": 41480256 }, "geometry": { "type": "Point", "coordinates": [ 126.875021700004183, 37.849161989986271 ] } },
{ "type": "Feature", "properties": { "fid": 4613, "ctprvn_cd": 41, "objt_id": 254957, "fclty_cd": 504040, "rn_adres": null, "fclty_nm": "문산 중앙문구", "sgg_cd": null, "fclty_ty": "아동안전지킴이집", "adres": "경기도 파주시 문산로 34-0,61-10", "telno": "031-953-9668", "x": 14113426.43739, "data_yr": null, "y": 4559271.0900600003, "emd_cd": 41480250 }, "geometry": { "type": "Point", "coordinates": [ 126.78306680003962, 37.857189600001192 ] } },
{ "type": "Feature", "properties": { "fid": 4612, "ctprvn_cd": 41, "objt_id": 254956, "fclty_cd": 504040, "rn_adres": null, "fclty_nm": "문산 우리온누리약국", "sgg_cd": null, "fclty_ty": "아동안전지킴이집", "adres": "경기도 파주시 문산읍 당동리,우리메디털프라자 105호", "telno": "031-953-9272", "x": 14112517.992419999, "data_yr": null, "y": 4560925.2873999998, "emd_cd": 41480250 }, "geometry": { "type": "Point", "coordinates": [ 126.7749061000263, 37.868921199977557 ] } },
{ "type": "Feature", "properties": { "fid": 6330, "ctprvn_cd": 41, "objt_id": 256674, "fclty_cd": 504040, "rn_adres": null, "fclty_nm": "세븐일레븐(파주해솔로점)", "sgg_cd": null, "fclty_ty": "아동안전지킴이집", "adres": "경기도 파주시 해솔로 85-0", "telno": "-031-", "x": 14109289.704919999, "data_yr": null, "y": 4541195.9314200003, "emd_cd": 41480117 }, "geometry": { "type": "Point", "coordinates": [ 126.745905899998476, 37.728878580013827 ] } },
{ "type": "Feature", "properties": { "fid": 7616, "ctprvn_cd": 41, "objt_id": 257960, "fclty_cd": 504040, "rn_adres": null, "fclty_nm": "왕순이주먹밥", "sgg_cd": null, "fclty_ty": "아동안전지킴이집", "adres": "경기도 파주시 와석순환로 35-0,한빛마을8단지 상가 104호", "telno": "031-948-6900", "x": 14110301.409849999, "data_yr": null, "y": 4538343.6685199998, "emd_cd": 41480108 }, "geometry": { "type": "Point", "coordinates": [ 126.754994200014863, 37.708610729982631 ] } },
{ "type": "Feature", "properties": { "fid": 8582, "ctprvn_cd": 41, "objt_id": 258926, "fclty_cd": 504040, "rn_adres": null, "fclty_nm": "조리 푸른서점", "sgg_cd": null, "fclty_ty": "아동안전지킴이집", "adres": "경기도 파주시 봉천로 38-77,38-75", "telno": "031-941-5165", "x": 14116137.979809999, "data_yr": null, "y": 4543354.6221799999, "emd_cd": 41480262 }, "geometry": { "type": "Point", "coordinates": [ 126.807425000033859, 37.744214299994617 ] } },
{ "type": "Feature", "properties": { "fid": 9203, "ctprvn_cd": 41, "objt_id": 259547, "fclty_cd": 504040, "rn_adres": null, "fclty_nm": "탄현 엘피엘 주유소", "sgg_cd": null, "fclty_ty": "아동안전지킴이집", "adres": "경기도 파주시 탄현면 금승리,488-6", "telno": "031-942-3800", "x": 14107723.339500001, "data_yr": null, "y": 4554704.1489399998, "emd_cd": 41480320 }, "geometry": { "type": "Point", "coordinates": [ 126.731835000025455, 37.824791070032184 ] } },
{ "type": "Feature", "properties": { "fid": 10254, "ctprvn_cd": 41, "objt_id": 260598, "fclty_cd": 504040, "rn_adres": null, "fclty_nm": "행복할인마트", "sgg_cd": null, "fclty_ty": "아동안전지킴이집", "adres": "경기도 파주시 술이홀로 953-0", "telno": "031-958-8249", "x": 14123930.956420001, "data_yr": null, "y": 4559021.8115499998, "emd_cd": 41480256 }, "geometry": { "type": "Point", "coordinates": [ 126.877430500009368, 37.85542155000774 ] } },
{ "type": "Feature", "properties": { "fid": 10282, "ctprvn_cd": 41, "objt_id": 260626, "fclty_cd": 504040, "rn_adres": null, "fclty_nm": "해법정문보습학원", "sgg_cd": null, "fclty_ty": "아동안전지킴이집", "adres": "경기도 파주시 동산3길 38-12,동산3길 38-12", "telno": "031-944-9219", "x": 14111893.991010001, "data_yr": null, "y": 4545673.5847899998, "emd_cd": 41480101 }, "geometry": { "type": "Point", "coordinates": [ 126.769300599987147, 37.760685079991205 ] } },
{ "type": "Feature", "properties": { "fid": 8436, "ctprvn_cd": 41, "objt_id": 258780, "fclty_cd": 504040, "rn_adres": null, "fclty_nm": "적성 태평양약국", "sgg_cd": null, "fclty_ty": "아동안전지킴이집", "adres": "경기도 파주시 청송로 1016-0", "telno": "031-958-8275", "x": 14128481.162869999, "data_yr": null, "y": 4572911.35195, "emd_cd": 41480370 }, "geometry": { "type": "Point", "coordinates": [ 126.918305700008702, 37.953870799983804 ] } }
]
}
